{
  "elements": [
    {
      "uid": "trx Benavidez",
      "type": "Transceiver",
      "metadata": {
        "location": {
          "latitude": -34.4083,
          "longitude": -58.675,
          "city": "Benavidez",
          "region": "Norte"
        }
      }
    },
    {
      "uid": "trx Campana",
      "type": "Transceiver",
      "metadata": {
        "location": {
          "latitude": -34.1633,
          "longitude": -58.9592,
          "city": "Campana",
          "region": "Norte"
        }
      }
    },
    {
      "uid": "trx Zarate",
      "type": "Transceiver",
      "metadata": {
        "location": {
          "latitude": -34.0958,
          "longitude": -59.0242,
          "city": "Zarate",
          "region": "Norte"
        }
      }
    },
    {
      "uid": "trx Baradero",
      "type": "Transceiver",
      "metadata": {
        "location": {
          "latitude": -33.812,
          "longitude": -59.5047,
          "city": "Baradero",
          "region": "Norte"
        }
      }
    },
    {
      "uid": "trx San Pedro BsAs",
      "type": "Transceiver",
      "metadata": {
        "location": {
          "latitude": -33.6792,
          "longitude": -59.6663,
          "city": "San Pedro BsAs",
          "region": "Norte"
        }
      }
    },
    {
      "uid": "trx San Nicolas",
      "type": "Transceiver",
      "metadata": {
        "location": {
          "latitude": -33.335,
          "longitude": -60.225,
          "city": "San Nicolas",
          "region": "Norte"
        }
      }
    },
    {
      "uid": "trx Rosario",
      "type": "Transceiver",
      "metadata": {
        "location": {
          "latitude": -32.9468,
          "longitude": -60.6393,
          "city": "Rosario",
          "region": "Norte"
        }
      }
    },
    {
      "uid": "trx Concepcion del Uruguay",
      "type": "Transceiver",
      "metadata": {
        "location": {
          "latitude": -32.4846,
          "longitude": -58.2322,
          "city": "Concepcion del Uruguay",
          "region": "Norte"
        }
      }
    },
    {
      "uid": "trx Cordoba",
      "type": "Transceiver",
      "metadata": {
        "location": {
          "latitude": -31.4167,
          "longitude": -64.1833,
          "city": "Cordoba",
          "region": "Norte"
        }
      }
    },
    {
      "uid": "trx Arroyito",
      "type": "Transceiver",
      "metadata": {
        "location": {
          "latitude": -31.4202,
          "longitude": -63.05,
          "city": "Arroyito",
          "region": "Norte"
        }
      }
    },
    {
      "uid": "trx San Francisco",
      "type": "Transceiver",
      "metadata": {
        "location": {
          "latitude": -31.428,
          "longitude": -62.0827,
          "city": "San Francisco",
          "region": "Norte"
        }
      }
    },
    {
      "uid": "trx Rafaela",
      "type": "Transceiver",
      "metadata": {
        "location": {
          "latitude": -31.2503,
          "longitude": -61.4867,
          "city": "Rafaela",
          "region": "Norte"
        }
      }
    },
    {
      "uid": "trx Santa Fe",
      "type": "Transceiver",
      "metadata": {
        "location": {
          "latitude": -31.633,
          "longitude": -60.7,
          "city": "Santa Fe",
          "region": "Norte"
        }
      }
    },
    {
      "uid": "trx San Fabian",
      "type": "Transceiver",
      "metadata": {
        "location": {
          "latitude": -32.1362,
          "longitude": -60.9826,
          "city": "San Fabian",
          "region": "Norte"
        }
      }
    },
    {
      "uid": "trx Sunchales",
      "type": "Transceiver",
      "metadata": {
        "location": {
          "latitude": -30.944,
          "longitude": -61.5615,
          "city": "Sunchales",
          "region": "Norte"
        }
      }
    },
    {
      "uid": "trx Ceres",
      "type": "Transceiver",
      "metadata": {
        "location": {
          "latitude": -29.8817,
          "longitude": -61.9461,
          "city": "Ceres",
          "region": "Norte"
        }
      }
    },
    {
      "uid": "trx Tostado",
      "type": "Transceiver",
      "metadata": {
        "location": {
          "latitude": -29.2292,
          "longitude": -61.7717,
          "city": "Tostado",
          "region": "Norte"
        }
      }
    },
    {
      "uid": "trx Vera",
      "type": "Transceiver",
      "metadata": {
        "location": {
          "latitude": -29.4593,
          "longitude": -60.2126,
          "city": "Vera",
          "region": "Norte"
        }
      }
    },
    {
      "uid": "trx Resistencia",
      "type": "Transceiver",
      "metadata": {
        "location": {
          "latitude": -27.4514,
          "longitude": -58.9867,
          "city": "Resistencia",
          "region": "Norte"
        }
      }
    },
    {
      "uid": "trx Parana",
      "type": "Transceiver",
      "metadata": {
        "location": {
          "latitude": -31.7413,
          "longitude": -60.5115,
          "city": "Parana",
          "region": "Norte"
        }
      }
    },
    {
      "uid": "trx La Paz",
      "type": "Transceiver",
      "metadata": {
        "location": {
          "latitude": -30.7418,
          "longitude": -59.6452,
          "city": "La Paz",
          "region": "Norte"
        }
      }
    },
    {
      "uid": "trx Goya",
      "type": "Transceiver",
      "metadata": {
        "location": {
          "latitude": -29.1399,
          "longitude": -59.2634,
          "city": "Goya",
          "region": "Norte"
        }
      }
    },
    {
      "uid": "trx Bella Vista",
      "type": "Transceiver",
      "metadata": {
        "location": {
          "latitude": -28.5171,
          "longitude": -59.0365,
          "city": "Bella Vista",
          "region": "Norte"
        }
      }
    },
    {
      "uid": "trx Corrientes",
      "type": "Transceiver",
      "metadata": {
        "location": {
          "latitude": -27.4806,
          "longitude": -58.8341,
          "city": "Corrientes",
          "region": "Norte"
        }
      }
    },
    {
      "uid": "trx Presidencia Roque Saenz Peña",
      "type": "Transceiver",
      "metadata": {
        "location": {
          "latitude": -26.7852,
          "longitude": -60.438,
          "city": "Presidencia Roque Saenz Peña",
          "region": "Norte"
        }
      }
    },
    {
      "uid": "trx San Jose de Metan",
      "type": "Transceiver",
      "metadata": {
        "location": {
          "latitude": -25.4939,
          "longitude": -64.972,
          "city": "San Jose de Metan",
          "region": "Norte"
        }
      }
    },
    {
      "uid": "trx Tucuman",
      "type": "Transceiver",
      "metadata": {
        "location": {
          "latitude": -26.8086,
          "longitude": -65.2193,
          "city": "Tucuman",
          "region": "Norte"
        }
      }
    },
    {
      "uid": "trx Jesus Maria",
      "type": "Transceiver",
      "metadata": {
        "location": {
          "latitude": -30.9815,
          "longitude": -64.0942,
          "city": "Jesus Maria",
          "region": "Norte"
        }
      }
    },
    {
      "uid": "trx Dean Funes",
      "type": "Transceiver",
      "metadata": {
        "location": {
          "latitude": -30.425,
          "longitude": -64.3494,
          "city": "Dean Funes",
          "region": "Norte"
        }
      }
    },
    {
      "uid": "trx Frias",
      "type": "Transceiver",
      "metadata": {
        "location": {
          "latitude": -28.6376,
          "longitude": -65.1288,
          "city": "Frias",
          "region": "Norte"
        }
      }
    },
    {
      "uid": "trx Santiago del Estero",
      "type": "Transceiver",
      "metadata": {
        "location": {
          "latitude": -27.7951,
          "longitude": -64.2615,
          "city": "Santiago del Estero",
          "region": "Norte"
        }
      }
    },
    {
      "uid": "trx Mendoza",
      "type": "Transceiver",
      "metadata": {
        "location": {
          "latitude": -32.8897,
          "longitude": -68.8444,
          "city": "Mendoza",
          "region": "Norte"
        }
      }
    },
    {
      "uid": "trx Villa Tulumaya",
      "type": "Transceiver",
      "metadata": {
        "location": {
          "latitude": -32.7167,
          "longitude": -68.5667,
          "city": "Villa Tulumaya",
          "region": "Norte"
        }
      }
    },
    {
      "uid": "trx Villa Media Agua",
      "type": "Transceiver",
      "metadata": {
        "location": {
          "latitude": -31.983,
          "longitude": -68.424,
          "city": "Villa Media Agua",
          "region": "Norte"
        }
      }
    },
    {
      "uid": "trx San Juan",
      "type": "Transceiver",
      "metadata": {
        "location": {
          "latitude": -31.5342,
          "longitude": -68.5261,
          "city": "San Juan",
          "region": "Norte"
        }
      }
    },
    {
      "uid": "trx Serrezuela",
      "type": "Transceiver",
      "metadata": {
        "location": {
          "latitude": -30.0,
          "longitude": -65.0,
          "city": "Serrezuela",
          "region": "Norte"
        }
      }
    },
    {
      "uid": "trx La Falda",
      "type": "Transceiver",
      "metadata": {
        "location": {
          "latitude": -31.1,
          "longitude": -64.4833,
          "city": "La Falda",
          "region": "Norte"
        }
      }
    },
    {
      "uid": "trx Formosa",
      "type": "Transceiver",
      "metadata": {
        "location": {
          "latitude": -26.1849,
          "longitude": -58.1731,
          "city": "Formosa",
          "region": "Norte"
        }
      }
    },
    {
      "uid": "trx Las Lomitas",
      "type": "Transceiver",
      "metadata": {
        "location": {
          "latitude": -24.7096,
          "longitude": -60.593,
          "city": "Las Lomitas",
          "region": "Norte"
        }
      }
    },
    {
      "uid": "trx Cap Juan Page",
      "type": "Transceiver",
      "metadata": {
        "location": {
          "latitude": -23.8167,
          "longitude": -61.9333,
          "city": "Cap Juan Page",
          "region": "Norte"
        }
      }
    },
    {
      "uid": "trx Embarcacion",
      "type": "Transceiver",
      "metadata": {
        "location": {
          "latitude": -23.0167,
          "longitude": -64.1,
          "city": "Embarcacion",
          "region": "Norte"
        }
      }
    },
    {
      "uid": "trx Lib Gral San Martin",
      "type": "Transceiver",
      "metadata": {
        "location": {
          "latitude": -23.8,
          "longitude": -64.7833,
          "city": "Lib Gral San Martin",
          "region": "Norte"
        }
      }
    },
    {
      "uid": "trx San Pedro Jujuy",
      "type": "Transceiver",
      "metadata": {
        "location": {
          "latitude": -24.2333,
          "longitude": -64.8667,
          "city": "San Pedro Jujuy",
          "region": "Norte"
        }
      }
    },
    {
      "uid": "trx San Salvador de Jujuy",
      "type": "Transceiver",
      "metadata": {
        "location": {
          "latitude": -24.1858,
          "longitude": -65.2995,
          "city": "San Salvador de Jujuy",
          "region": "Norte"
        }
      }
    },
    {
      "uid": "trx Posadas",
      "type": "Transceiver",
      "metadata": {
        "location": {
          "latitude": -27.3667,
          "longitude": -55.9667,
          "city": "Posadas",
          "region": "Norte"
        }
      }
    },
    {
      "uid": "trx Ituzaingo",
      "type": "Transceiver",
      "metadata": {
        "location": {
          "latitude": -27.6,
          "longitude": -56.667,
          "city": "Ituzaingo",
          "region": "Norte"
        }
      }
    },
    {
      "uid": "trx San Jose",
      "type": "Transceiver",
      "metadata": {
        "location": {
          "latitude": -27.7698,
          "longitude": -55.7826,
          "city": "San Jose",
          "region": "Norte"
        }
      }
    },
    {
      "uid": "trx Paso de Los Libres",
      "type": "Transceiver",
      "metadata": {
        "location": {
          "latitude": -29.7139,
          "longitude": -57.0867,
          "city": "Paso de Los Libres",
          "region": "Norte"
        }
      }
    },
    {
      "uid": "trx Concordia",
      "type": "Transceiver",
      "metadata": {
        "location": {
          "latitude": -31.3929,
          "longitude": -58.0209,
          "city": "Concordia",
          "region": "Norte"
        }
      }
    },
    {
      "uid": "trx Salta",
      "type": "Transceiver",
      "metadata": {
        "location": {
          "latitude": -24.7829,
          "longitude": -65.4232,
          "city": "Salta",
          "region": "Norte"
        }
      }
    },
    {
      "uid": "trx Choromoro",
      "type": "Transceiver",
      "metadata": {
        "location": {
          "latitude": -26.4113,
          "longitude": -65.3198,
          "city": "Choromoro",
          "region": "Norte"
        }
      }
    },
    {
      "uid": "roadm Benavidez",
      "type": "Roadm",
      "params": {
        "target_pch_out_db": -20,
        "restrictions": {
          "preamp_variety_list": [],
          "booster_variety_list": []
        },
        "per_degree_pch_out_db": {
          "Edfa_booster_roadm Benavidez_to_fiber (Benavidez → Campana)-": -20
        }
      },
      "metadata": {
        "location": {
          "latitude": -34.4083,
          "longitude": -58.675,
          "city": "Benavidez",
          "region": "Norte"
        }
      }
    },
    {
      "uid": "roadm Campana",
      "type": "Roadm",
      "params": {
        "target_pch_out_db": -20,
        "restrictions": {
          "preamp_variety_list": [],
          "booster_variety_list": []
        },
        "per_degree_pch_out_db": {
          "Edfa_booster_roadm Campana_to_fiber (Campana → Benavidez)-": -20,
          "Edfa_booster_roadm Campana_to_fiber (Campana → Zarate)-": -20
        }
      },
      "metadata": {
        "location": {
          "latitude": -34.1633,
          "longitude": -58.9592,
          "city": "Campana",
          "region": "Norte"
        }
      }
    },
    {
      "uid": "roadm Zarate",
      "type": "Roadm",
      "params": {
        "target_pch_out_db": -20,
        "restrictions": {
          "preamp_variety_list": [],
          "booster_variety_list": []
        },
        "per_degree_pch_out_db": {
          "Edfa_booster_roadm Zarate_to_fiber (Zarate → Campana)-": -20,
          "Edfa_booster_roadm Zarate_to_fiber (Zarate → Baradero)-": -20,
          "Edfa_booster_roadm Zarate_to_fiber (Zarate → Ceibas)-": -20
        }
      },
      "metadata": {
        "location": {
          "latitude": -34.0958,
          "longitude": -59.0242,
          "city": "Zarate",
          "region": "Norte"
        }
      }
    },
    {
      "uid": "roadm Baradero",
      "type": "Roadm",
      "params": {
        "target_pch_out_db": -20,
        "restrictions": {
          "preamp_variety_list": [],
          "booster_variety_list": []
        },
        "per_degree_pch_out_db": {
          "Edfa_booster_roadm Baradero_to_fiber (Baradero → Zarate)-": -20,
          "Edfa_booster_roadm Baradero_to_fiber (Baradero → San Pedro BsAs)-": -20
        }
      },
      "metadata": {
        "location": {
          "latitude": -33.812,
          "longitude": -59.5047,
          "city": "Baradero",
          "region": "Norte"
        }
      }
    },
    {
      "uid": "roadm San Pedro BsAs",
      "type": "Roadm",
      "params": {
        "target_pch_out_db": -20,
        "restrictions": {
          "preamp_variety_list": [],
          "booster_variety_list": []
        },
        "per_degree_pch_out_db": {
          "Edfa_booster_roadm San Pedro BsAs_to_fiber (San Pedro BsAs → Baradero)-": -20,
          "Edfa_booster_roadm San Pedro BsAs_to_fiber (San Pedro BsAs → San Nicolas)-": -20
        }
      },
      "metadata": {
        "location": {
          "latitude": -33.6792,
          "longitude": -59.6663,
          "city": "San Pedro BsAs",
          "region": "Norte"
        }
      }
    },
    {
      "uid": "roadm San Nicolas",
      "type": "Roadm",
      "params": {
        "target_pch_out_db": -20,
        "restrictions": {
          "preamp_variety_list": [],
          "booster_variety_list": []
        },
        "per_degree_pch_out_db": {
          "Edfa_booster_roadm San Nicolas_to_fiber (San Nicolas → San Pedro BsAs)-": -20,
          "Edfa_booster_roadm San Nicolas_to_fiber (San Nicolas → Rosario)-": -20
        }
      },
      "metadata": {
        "location": {
          "latitude": -33.335,
          "longitude": -60.225,
          "city": "San Nicolas",
          "region": "Norte"
        }
      }
    },
    {
      "uid": "roadm Rosario",
      "type": "Roadm",
      "params": {
        "target_pch_out_db": -20,
        "restrictions": {
          "preamp_variety_list": [],
          "booster_variety_list": []
        },
        "per_degree_pch_out_db": {
          "Edfa_booster_roadm Rosario_to_fiber (Rosario → San Nicolas)-": -20,
          "Edfa_booster_roadm Rosario_to_fiber (Rosario → Victoria)-": -20,
          "Edfa_booster_roadm Rosario_to_fiber (Rosario → San Fabian)-": -20
        }
      },
      "metadata": {
        "location": {
          "latitude": -32.9468,
          "longitude": -60.6393,
          "city": "Rosario",
          "region": "Norte"
        }
      }
    },
    {
      "uid": "roadm Concepcion del Uruguay",
      "type": "Roadm",
      "params": {
        "target_pch_out_db": -20,
        "restrictions": {
          "preamp_variety_list": [],
          "booster_variety_list": []
        },
        "per_degree_pch_out_db": {
          "Edfa_booster_roadm Concepcion del Uruguay_to_fiber (Concepcion del Uruguay → Basabilbazo)-": -20,
          "Edfa_booster_roadm Concepcion del Uruguay_to_fiber (Concepcion del Uruguay → Gualeguaychu)-": -20
        }
      },
      "metadata": {
        "location": {
          "latitude": -32.4846,
          "longitude": -58.2322,
          "city": "Concepcion del Uruguay",
          "region": "Norte"
        }
      }
    },
    {
      "uid": "roadm Cordoba",
      "type": "Roadm",
      "params": {
        "target_pch_out_db": -20,
        "restrictions": {
          "preamp_variety_list": [],
          "booster_variety_list": []
        },
        "per_degree_pch_out_db": {
          "Edfa_booster_roadm Cordoba_to_fiber (Cordoba → Rio Primero)-": -20,
          "Edfa_booster_roadm Cordoba_to_fiber (Cordoba → Jesus Maria)-": -20,
          "Edfa_booster_roadm Cordoba_to_fiber (Cordoba → La Falda)-": -20
        }
      },
      "metadata": {
        "location": {
          "latitude": -31.4167,
          "longitude": -64.1833,
          "city": "Cordoba",
          "region": "Norte"
        }
      }
    },
    {
      "uid": "roadm Arroyito",
      "type": "Roadm",
      "params": {
        "target_pch_out_db": -20,
        "restrictions": {
          "preamp_variety_list": [],
          "booster_variety_list": []
        },
        "per_degree_pch_out_db": {
          "Edfa_booster_roadm Arroyito_to_fiber (Arroyito → Rio Primero)-": -20,
          "Edfa_booster_roadm Arroyito_to_fiber (Arroyito → San Francisco)-": -20
        }
      },
      "metadata": {
        "location": {
          "latitude": -31.4202,
          "longitude": -63.05,
          "city": "Arroyito",
          "region": "Norte"
        }
      }
    },
    {
      "uid": "roadm San Francisco",
      "type": "Roadm",
      "params": {
        "target_pch_out_db": -20,
        "restrictions": {
          "preamp_variety_list": [],
          "booster_variety_list": []
        },
        "per_degree_pch_out_db": {
          "Edfa_booster_roadm San Francisco_to_fiber (San Francisco → Arroyito)-": -20,
          "Edfa_booster_roadm San Francisco_to_fiber (San Francisco → Rafaela)-": -20
        }
      },
      "metadata": {
        "location": {
          "latitude": -31.428,
          "longitude": -62.0827,
          "city": "San Francisco",
          "region": "Norte"
        }
      }
    },
    {
      "uid": "roadm Rafaela",
      "type": "Roadm",
      "params": {
        "target_pch_out_db": -20,
        "restrictions": {
          "preamp_variety_list": [],
          "booster_variety_list": []
        },
        "per_degree_pch_out_db": {
          "Edfa_booster_roadm Rafaela_to_fiber (Rafaela → San Francisco)-": -20,
          "Edfa_booster_roadm Rafaela_to_fiber (Rafaela → Esperanza)-": -20,
          "Edfa_booster_roadm Rafaela_to_fiber (Rafaela → Sunchales)-": -20
        }
      },
      "metadata": {
        "location": {
          "latitude": -31.2503,
          "longitude": -61.4867,
          "city": "Rafaela",
          "region": "Norte"
        }
      }
    },
    {
      "uid": "roadm Santa Fe",
      "type": "Roadm",
      "params": {
        "target_pch_out_db": -20,
        "restrictions": {
          "preamp_variety_list": [],
          "booster_variety_list": []
        },
        "per_degree_pch_out_db": {
          "Edfa_booster_roadm Santa Fe_to_fiber (Santa Fe → Esperanza)-": -20,
          "Edfa_booster_roadm Santa Fe_to_fiber (Santa Fe → San Fabian)-": -20,
          "Edfa_booster_roadm Santa Fe_to_fiber (Santa Fe → Parana)-": -20
        }
      },
      "metadata": {
        "location": {
          "latitude": -31.633,
          "longitude": -60.7,
          "city": "Santa Fe",
          "region": "Norte"
        }
      }
    },
    {
      "uid": "roadm San Fabian",
      "type": "Roadm",
      "params": {
        "target_pch_out_db": -20,
        "restrictions": {
          "preamp_variety_list": [],
          "booster_variety_list": []
        },
        "per_degree_pch_out_db": {
          "Edfa_booster_roadm San Fabian_to_fiber (San Fabian → Santa Fe)-": -20,
          "Edfa_booster_roadm San Fabian_to_fiber (San Fabian → Rosario)-": -20
        }
      },
      "metadata": {
        "location": {
          "latitude": -32.1362,
          "longitude": -60.9826,
          "city": "San Fabian",
          "region": "Norte"
        }
      }
    },
    {
      "uid": "roadm Sunchales",
      "type": "Roadm",
      "params": {
        "target_pch_out_db": -20,
        "restrictions": {
          "preamp_variety_list": [],
          "booster_variety_list": []
        },
        "per_degree_pch_out_db": {
          "Edfa_booster_roadm Sunchales_to_fiber (Sunchales → Rafaela)-": -20,
          "Edfa_booster_roadm Sunchales_to_fiber (Sunchales → Arrufo)-": -20
        }
      },
      "metadata": {
        "location": {
          "latitude": -30.944,
          "longitude": -61.5615,
          "city": "Sunchales",
          "region": "Norte"
        }
      }
    },
    {
      "uid": "roadm Ceres",
      "type": "Roadm",
      "params": {
        "target_pch_out_db": -20,
        "restrictions": {
          "preamp_variety_list": [],
          "booster_variety_list": []
        },
        "per_degree_pch_out_db": {
          "Edfa_booster_roadm Ceres_to_fiber (Ceres → Arrufo)-": -20,
          "Edfa_booster_roadm Ceres_to_fiber (Ceres → Tostado)-": -20
        }
      },
      "metadata": {
        "location": {
          "latitude": -29.8817,
          "longitude": -61.9461,
          "city": "Ceres",
          "region": "Norte"
        }
      }
    },
    {
      "uid": "roadm Tostado",
      "type": "Roadm",
      "params": {
        "target_pch_out_db": -20,
        "restrictions": {
          "preamp_variety_list": [],
          "booster_variety_list": []
        },
        "per_degree_pch_out_db": {
          "Edfa_booster_roadm Tostado_to_fiber (Tostado → Ceres)-": -20,
          "Edfa_booster_roadm Tostado_to_fiber (Tostado → Los Pumas)-": -20
        }
      },
      "metadata": {
        "location": {
          "latitude": -29.2292,
          "longitude": -61.7717,
          "city": "Tostado",
          "region": "Norte"
        }
      }
    },
    {
      "uid": "roadm Vera",
      "type": "Roadm",
      "params": {
        "target_pch_out_db": -20,
        "restrictions": {
          "preamp_variety_list": [],
          "booster_variety_list": []
        },
        "per_degree_pch_out_db": {
          "Edfa_booster_roadm Vera_to_fiber (Vera → La Gallareta)-": -20,
          "Edfa_booster_roadm Vera_to_fiber (Vera → Intiyaco)-": -20
        }
      },
      "metadata": {
        "location": {
          "latitude": -29.4593,
          "longitude": -60.2126,
          "city": "Vera",
          "region": "Norte"
        }
      }
    },
    {
      "uid": "roadm Resistencia",
      "type": "Roadm",
      "params": {
        "target_pch_out_db": -20,
        "restrictions": {
          "preamp_variety_list": [],
          "booster_variety_list": []
        },
        "per_degree_pch_out_db": {
          "Edfa_booster_roadm Resistencia_to_fiber (Resistencia → Charadai)-": -20,
          "Edfa_booster_roadm Resistencia_to_fiber (Resistencia → Corrientes)-": -20,
          "Edfa_booster_roadm Resistencia_to_fiber (Resistencia → Presidencia de La Plaza)-": -20,
          "Edfa_booster_roadm Resistencia_to_fiber (Resistencia → La Leonesa)-": -20
        }
      },
      "metadata": {
        "location": {
          "latitude": -27.4514,
          "longitude": -58.9867,
          "city": "Resistencia",
          "region": "Norte"
        }
      }
    },
    {
      "uid": "roadm Parana",
      "type": "Roadm",
      "params": {
        "target_pch_out_db": -20,
        "restrictions": {
          "preamp_variety_list": [],
          "booster_variety_list": []
        },
        "per_degree_pch_out_db": {
          "Edfa_booster_roadm Parana_to_fiber (Parana → Santa Fe)-": -20,
          "Edfa_booster_roadm Parana_to_fiber (Parana → Cerrito)-": -20,
          "Edfa_booster_roadm Parana_to_fiber (Parana → Hasenkamp)-": -20
        }
      },
      "metadata": {
        "location": {
          "latitude": -31.7413,
          "longitude": -60.5115,
          "city": "Parana",
          "region": "Norte"
        }
      }
    },
    {
      "uid": "roadm La Paz",
      "type": "Roadm",
      "params": {
        "target_pch_out_db": -20,
        "restrictions": {
          "preamp_variety_list": [],
          "booster_variety_list": []
        },
        "per_degree_pch_out_db": {
          "Edfa_booster_roadm La Paz_to_fiber (La Paz → Cerrito)-": -20,
          "Edfa_booster_roadm La Paz_to_fiber (La Paz → Esquina)-": -20
        }
      },
      "metadata": {
        "location": {
          "latitude": -30.7418,
          "longitude": -59.6452,
          "city": "La Paz",
          "region": "Norte"
        }
      }
    },
    {
      "uid": "roadm Goya",
      "type": "Roadm",
      "params": {
        "target_pch_out_db": -20,
        "restrictions": {
          "preamp_variety_list": [],
          "booster_variety_list": []
        },
        "per_degree_pch_out_db": {
          "Edfa_booster_roadm Goya_to_fiber (Goya → Esquina)-": -20,
          "Edfa_booster_roadm Goya_to_fiber (Goya → Bella Vista)-": -20
        }
      },
      "metadata": {
        "location": {
          "latitude": -29.1399,
          "longitude": -59.2634,
          "city": "Goya",
          "region": "Norte"
        }
      }
    },
    {
      "uid": "roadm Bella Vista",
      "type": "Roadm",
      "params": {
        "target_pch_out_db": -20,
        "restrictions": {
          "preamp_variety_list": [],
          "booster_variety_list": []
        },
        "per_degree_pch_out_db": {
          "Edfa_booster_roadm Bella Vista_to_fiber (Bella Vista → Goya)-": -20,
          "Edfa_booster_roadm Bella Vista_to_fiber (Bella Vista → Empedrado)-": -20
        }
      },
      "metadata": {
        "location": {
          "latitude": -28.5171,
          "longitude": -59.0365,
          "city": "Bella Vista",
          "region": "Norte"
        }
      }
    },
    {
      "uid": "roadm Corrientes",
      "type": "Roadm",
      "params": {
        "target_pch_out_db": -20,
        "restrictions": {
          "preamp_variety_list": [],
          "booster_variety_list": []
        },
        "per_degree_pch_out_db": {
          "Edfa_booster_roadm Corrientes_to_fiber (Corrientes → Empedrado)-": -20,
          "Edfa_booster_roadm Corrientes_to_fiber (Corrientes → Resistencia)-": -20,
          "Edfa_booster_roadm Corrientes_to_fiber (Corrientes → Ramada Paso)-": -20
        }
      },
      "metadata": {
        "location": {
          "latitude": -27.4806,
          "longitude": -58.8341,
          "city": "Corrientes",
          "region": "Norte"
        }
      }
    },
    {
      "uid": "roadm Presidencia Roque Saenz Peña",
      "type": "Roadm",
      "params": {
        "target_pch_out_db": -20,
        "restrictions": {
          "preamp_variety_list": [],
          "booster_variety_list": []
        },
        "per_degree_pch_out_db": {
          "Edfa_booster_roadm Presidencia Roque Saenz Peña_to_fiber (Presidencia Roque Saenz Peña → Presidencia de La Plaza)-": -20,
          "Edfa_booster_roadm Presidencia Roque Saenz Peña_to_fiber (Presidencia Roque Saenz Peña → Pampa del Infierno)-": -20
        }
      },
      "metadata": {
        "location": {
          "latitude": -26.7852,
          "longitude": -60.438,
          "city": "Presidencia Roque Saenz Peña",
          "region": "Norte"
        }
      }
    },
    {
      "uid": "roadm San Jose de Metan",
      "type": "Roadm",
      "params": {
        "target_pch_out_db": -20,
        "restrictions": {
          "preamp_variety_list": [],
          "booster_variety_list": []
        },
        "per_degree_pch_out_db": {
          "Edfa_booster_roadm San Jose de Metan_to_fiber (San Jose de Metan → El Tunal)-": -20,
          "Edfa_booster_roadm San Jose de Metan_to_fiber (San Jose de Metan → Rosario de La Frontera)-": -20,
          "Edfa_booster_roadm San Jose de Metan_to_fiber (San Jose de Metan → Lumbreras)-": -20
        }
      },
      "metadata": {
        "location": {
          "latitude": -25.4939,
          "longitude": -64.972,
          "city": "San Jose de Metan",
          "region": "Norte"
        }
      }
    },
    {
      "uid": "roadm Tucuman",
      "type": "Roadm",
      "params": {
        "target_pch_out_db": -20,
        "restrictions": {
          "preamp_variety_list": [],
          "booster_variety_list": []
        },
        "per_degree_pch_out_db": {
          "Edfa_booster_roadm Tucuman_to_fiber (Tucuman → Choromoro)-": -20,
          "Edfa_booster_roadm Tucuman_to_fiber (Tucuman → El Charco)-": -20
        }
      },
      "metadata": {
        "location": {
          "latitude": -26.8086,
          "longitude": -65.2193,
          "city": "Tucuman",
          "region": "Norte"
        }
      }
    },
    {
      "uid": "roadm Jesus Maria",
      "type": "Roadm",
      "params": {
        "target_pch_out_db": -20,
        "restrictions": {
          "preamp_variety_list": [],
          "booster_variety_list": []
        },
        "per_degree_pch_out_db": {
          "Edfa_booster_roadm Jesus Maria_to_fiber (Jesus Maria → Cordoba)-": -20,
          "Edfa_booster_roadm Jesus Maria_to_fiber (Jesus Maria → Dean Funes)-": -20
        }
      },
      "metadata": {
        "location": {
          "latitude": -30.9815,
          "longitude": -64.0942,
          "city": "Jesus Maria",
          "region": "Norte"
        }
      }
    },
    {
      "uid": "roadm Dean Funes",
      "type": "Roadm",
      "params": {
        "target_pch_out_db": -20,
        "restrictions": {
          "preamp_variety_list": [],
          "booster_variety_list": []
        },
        "per_degree_pch_out_db": {
          "Edfa_booster_roadm Dean Funes_to_fiber (Dean Funes → Jesus Maria)-": -20,
          "Edfa_booster_roadm Dean Funes_to_fiber (Dean Funes → Lucio V Mansilla)-": -20
        }
      },
      "metadata": {
        "location": {
          "latitude": -30.425,
          "longitude": -64.3494,
          "city": "Dean Funes",
          "region": "Norte"
        }
      }
    },
    {
      "uid": "roadm Frias",
      "type": "Roadm",
      "params": {
        "target_pch_out_db": -20,
        "restrictions": {
          "preamp_variety_list": [],
          "booster_variety_list": []
        },
        "per_degree_pch_out_db": {
          "Edfa_booster_roadm Frias_to_fiber (Frias → Recreo)-": -20,
          "Edfa_booster_roadm Frias_to_fiber (Frias → Laprida)-": -20
        }
      },
      "metadata": {
        "location": {
          "latitude": -28.6376,
          "longitude": -65.1288,
          "city": "Frias",
          "region": "Norte"
        }
      }
    },
    {
      "uid": "roadm Santiago del Estero",
      "type": "Roadm",
      "params": {
        "target_pch_out_db": -20,
        "restrictions": {
          "preamp_variety_list": [],
          "booster_variety_list": []
        },
        "per_degree_pch_out_db": {
          "Edfa_booster_roadm Santiago del Estero_to_fiber (Santiago del Estero → Laprida)-": -20,
          "Edfa_booster_roadm Santiago del Estero_to_fiber (Santiago del Estero → El Charco)-": -20
        }
      },
      "metadata": {
        "location": {
          "latitude": -27.7951,
          "longitude": -64.2615,
          "city": "Santiago del Estero",
          "region": "Norte"
        }
      }
    },
    {
      "uid": "roadm Mendoza",
      "type": "Roadm",
      "params": {
        "target_pch_out_db": -20,
        "restrictions": {
          "preamp_variety_list": [],
          "booster_variety_list": []
        },
        "per_degree_pch_out_db": {
          "Edfa_booster_roadm Mendoza_to_fiber (Mendoza → Villa Tulumaya)-": -20
        }
      },
      "metadata": {
        "location": {
          "latitude": -32.8897,
          "longitude": -68.8444,
          "city": "Mendoza",
          "region": "Norte"
        }
      }
    },
    {
      "uid": "roadm Villa Tulumaya",
      "type": "Roadm",
      "params": {
        "target_pch_out_db": -20,
        "restrictions": {
          "preamp_variety_list": [],
          "booster_variety_list": []
        },
        "per_degree_pch_out_db": {
          "Edfa_booster_roadm Villa Tulumaya_to_fiber (Villa Tulumaya → Mendoza)-": -20,
          "Edfa_booster_roadm Villa Tulumaya_to_fiber (Villa Tulumaya → Villa Media Agua)-": -20
        }
      },
      "metadata": {
        "location": {
          "latitude": -32.7167,
          "longitude": -68.5667,
          "city": "Villa Tulumaya",
          "region": "Norte"
        }
      }
    },
    {
      "uid": "roadm Villa Media Agua",
      "type": "Roadm",
      "params": {
        "target_pch_out_db": -20,
        "restrictions": {
          "preamp_variety_list": [],
          "booster_variety_list": []
        },
        "per_degree_pch_out_db": {
          "Edfa_booster_roadm Villa Media Agua_to_fiber (Villa Media Agua → Villa Tulumaya)-": -20,
          "Edfa_booster_roadm Villa Media Agua_to_fiber (Villa Media Agua → Caucete)-": -20
        }
      },
      "metadata": {
        "location": {
          "latitude": -31.983,
          "longitude": -68.424,
          "city": "Villa Media Agua",
          "region": "Norte"
        }
      }
    },
    {
      "uid": "roadm San Juan",
      "type": "Roadm",
      "params": {
        "target_pch_out_db": -20,
        "restrictions": {
          "preamp_variety_list": [],
          "booster_variety_list": []
        },
        "per_degree_pch_out_db": {
          "Edfa_booster_roadm San Juan_to_fiber (San Juan → Caucete)-": -20,
          "Edfa_booster_roadm San Juan_to_fiber (San Juan → Vallecito)-": -20
        }
      },
      "metadata": {
        "location": {
          "latitude": -31.5342,
          "longitude": -68.5261,
          "city": "San Juan",
          "region": "Norte"
        }
      }
    },
    {
      "uid": "roadm Serrezuela",
      "type": "Roadm",
      "params": {
        "target_pch_out_db": -20,
        "restrictions": {
          "preamp_variety_list": [],
          "booster_variety_list": []
        },
        "per_degree_pch_out_db": {
          "Edfa_booster_roadm Serrezuela_to_fiber (Serrezuela → Milagro)-": -20,
          "Edfa_booster_roadm Serrezuela_to_fiber (Serrezuela → Cruz del Eje)-": -20
        }
      },
      "metadata": {
        "location": {
          "latitude": -30.0,
          "longitude": -65.0,
          "city": "Serrezuela",
          "region": "Norte"
        }
      }
    },
    {
      "uid": "roadm La Falda",
      "type": "Roadm",
      "params": {
        "target_pch_out_db": -20,
        "restrictions": {
          "preamp_variety_list": [],
          "booster_variety_list": []
        },
        "per_degree_pch_out_db": {
          "Edfa_booster_roadm La Falda_to_fiber (La Falda → Cruz del Eje)-": -20,
          "Edfa_booster_roadm La Falda_to_fiber (La Falda → Cordoba)-": -20
        }
      },
      "metadata": {
        "location": {
          "latitude": -31.1,
          "longitude": -64.4833,
          "city": "La Falda",
          "region": "Norte"
        }
      }
    },
    {
      "uid": "roadm Formosa",
      "type": "Roadm",
      "params": {
        "target_pch_out_db": -20,
        "restrictions": {
          "preamp_variety_list": [],
          "booster_variety_list": []
        },
        "per_degree_pch_out_db": {
          "Edfa_booster_roadm Formosa_to_fiber (Formosa → Puerto Eva Peron)-": -20,
          "Edfa_booster_roadm Formosa_to_fiber (Formosa → San Hilario)-": -20
        }
      },
      "metadata": {
        "location": {
          "latitude": -26.1849,
          "longitude": -58.1731,
          "city": "Formosa",
          "region": "Norte"
        }
      }
    },
    {
      "uid": "roadm Las Lomitas",
      "type": "Roadm",
      "params": {
        "target_pch_out_db": -20,
        "restrictions": {
          "preamp_variety_list": [],
          "booster_variety_list": []
        },
        "per_degree_pch_out_db": {
          "Edfa_booster_roadm Las Lomitas_to_fiber (Las Lomitas → Estanislao del Campo)-": -20,
          "Edfa_booster_roadm Las Lomitas_to_fiber (Las Lomitas → Laguna Yema)-": -20
        }
      },
      "metadata": {
        "location": {
          "latitude": -24.7096,
          "longitude": -60.593,
          "city": "Las Lomitas",
          "region": "Norte"
        }
      }
    },
    {
      "uid": "roadm Cap Juan Page",
      "type": "Roadm",
      "params": {
        "target_pch_out_db": -20,
        "restrictions": {
          "preamp_variety_list": [],
          "booster_variety_list": []
        },
        "per_degree_pch_out_db": {
          "Edfa_booster_roadm Cap Juan Page_to_fiber (Cap Juan Page → Ing Guillermo Juarez)-": -20,
          "Edfa_booster_roadm Cap Juan Page_to_fiber (Cap Juan Page → Coronel Juan Sola)-": -20
        }
      },
      "metadata": {
        "location": {
          "latitude": -23.8167,
          "longitude": -61.9333,
          "city": "Cap Juan Page",
          "region": "Norte"
        }
      }
    },
    {
      "uid": "roadm Embarcacion",
      "type": "Roadm",
      "params": {
        "target_pch_out_db": -20,
        "restrictions": {
          "preamp_variety_list": [],
          "booster_variety_list": []
        },
        "per_degree_pch_out_db": {
          "Edfa_booster_roadm Embarcacion_to_fiber (Embarcacion → Hickman)-": -20,
          "Edfa_booster_roadm Embarcacion_to_fiber (Embarcacion → Pichanal)-": -20
        }
      },
      "metadata": {
        "location": {
          "latitude": -23.0167,
          "longitude": -64.1,
          "city": "Embarcacion",
          "region": "Norte"
        }
      }
    },
    {
      "uid": "roadm Lib Gral San Martin",
      "type": "Roadm",
      "params": {
        "target_pch_out_db": -20,
        "restrictions": {
          "preamp_variety_list": [],
          "booster_variety_list": []
        },
        "per_degree_pch_out_db": {
          "Edfa_booster_roadm Lib Gral San Martin_to_fiber (Lib Gral San Martin → Pichanal)-": -20,
          "Edfa_booster_roadm Lib Gral San Martin_to_fiber (Lib Gral San Martin → San Pedro Jujuy)-": -20
        }
      },
      "metadata": {
        "location": {
          "latitude": -23.8,
          "longitude": -64.7833,
          "city": "Lib Gral San Martin",
          "region": "Norte"
        }
      }
    },
    {
      "uid": "roadm San Pedro Jujuy",
      "type": "Roadm",
      "params": {
        "target_pch_out_db": -20,
        "restrictions": {
          "preamp_variety_list": [],
          "booster_variety_list": []
        },
        "per_degree_pch_out_db": {
          "Edfa_booster_roadm San Pedro Jujuy_to_fiber (San Pedro Jujuy → Lib Gral San Martin)-": -20,
          "Edfa_booster_roadm San Pedro Jujuy_to_fiber (San Pedro Jujuy → San Salvador de Jujuy)-": -20
        }
      },
      "metadata": {
        "location": {
          "latitude": -24.2333,
          "longitude": -64.8667,
          "city": "San Pedro Jujuy",
          "region": "Norte"
        }
      }
    },
    {
      "uid": "roadm San Salvador de Jujuy",
      "type": "Roadm",
      "params": {
        "target_pch_out_db": -20,
        "restrictions": {
          "preamp_variety_list": [],
          "booster_variety_list": []
        },
        "per_degree_pch_out_db": {
          "Edfa_booster_roadm San Salvador de Jujuy_to_fiber (San Salvador de Jujuy → San Pedro Jujuy)-": -20,
          "Edfa_booster_roadm San Salvador de Jujuy_to_fiber (San Salvador de Jujuy → Los Lapachos)-": -20
        }
      },
      "metadata": {
        "location": {
          "latitude": -24.1858,
          "longitude": -65.2995,
          "city": "San Salvador de Jujuy",
          "region": "Norte"
        }
      }
    },
    {
      "uid": "roadm Posadas",
      "type": "Roadm",
      "params": {
        "target_pch_out_db": -20,
        "restrictions": {
          "preamp_variety_list": [],
          "booster_variety_list": []
        },
        "per_degree_pch_out_db": {
          "Edfa_booster_roadm Posadas_to_fiber (Posadas → Ituzaingo)-": -20,
          "Edfa_booster_roadm Posadas_to_fiber (Posadas → San Jose)-": -20
        }
      },
      "metadata": {
        "location": {
          "latitude": -27.3667,
          "longitude": -55.9667,
          "city": "Posadas",
          "region": "Norte"
        }
      }
    },
    {
      "uid": "roadm Ituzaingo",
      "type": "Roadm",
      "params": {
        "target_pch_out_db": -20,
        "restrictions": {
          "preamp_variety_list": [],
          "booster_variety_list": []
        },
        "per_degree_pch_out_db": {
          "Edfa_booster_roadm Ituzaingo_to_fiber (Ituzaingo → Ita Ibate)-": -20,
          "Edfa_booster_roadm Ituzaingo_to_fiber (Ituzaingo → Posadas)-": -20
        }
      },
      "metadata": {
        "location": {
          "latitude": -27.6,
          "longitude": -56.667,
          "city": "Ituzaingo",
          "region": "Norte"
        }
      }
    },
    {
      "uid": "roadm San Jose",
      "type": "Roadm",
      "params": {
        "target_pch_out_db": -20,
        "restrictions": {
          "preamp_variety_list": [],
          "booster_variety_list": []
        },
        "per_degree_pch_out_db": {
          "Edfa_booster_roadm San Jose_to_fiber (San Jose → Apostoles)-": -20,
          "Edfa_booster_roadm San Jose_to_fiber (San Jose → Posadas)-": -20
        }
      },
      "metadata": {
        "location": {
          "latitude": -27.7698,
          "longitude": -55.7826,
          "city": "San Jose",
          "region": "Norte"
        }
      }
    },
    {
      "uid": "roadm Paso de Los Libres",
      "type": "Roadm",
      "params": {
        "target_pch_out_db": -20,
        "restrictions": {
          "preamp_variety_list": [],
          "booster_variety_list": []
        },
        "per_degree_pch_out_db": {
          "Edfa_booster_roadm Paso de Los Libres_to_fiber (Paso de Los Libres → Monte Caseros)-": -20,
          "Edfa_booster_roadm Paso de Los Libres_to_fiber (Paso de Los Libres → Guaviravi)-": -20
        }
      },
      "metadata": {
        "location": {
          "latitude": -29.7139,
          "longitude": -57.0867,
          "city": "Paso de Los Libres",
          "region": "Norte"
        }
      }
    },
    {
      "uid": "roadm Concordia",
      "type": "Roadm",
      "params": {
        "target_pch_out_db": -20,
        "restrictions": {
          "preamp_variety_list": [],
          "booster_variety_list": []
        },
        "per_degree_pch_out_db": {
          "Edfa_booster_roadm Concordia_to_fiber (Concordia → Nueva Vizcaya)-": -20,
          "Edfa_booster_roadm Concordia_to_fiber (Concordia → Chajari)-": -20
        }
      },
      "metadata": {
        "location": {
          "latitude": -31.3929,
          "longitude": -58.0209,
          "city": "Concordia",
          "region": "Norte"
        }
      }
    },
    {
      "uid": "roadm Salta",
      "type": "Roadm",
      "params": {
        "target_pch_out_db": -20,
        "restrictions": {
          "preamp_variety_list": [],
          "booster_variety_list": []
        },
        "per_degree_pch_out_db": {
          "Edfa_booster_roadm Salta_to_fiber (Salta → Lumbreras)-": -20,
          "Edfa_booster_roadm Salta_to_fiber (Salta → Los Lapachos)-": -20
        }
      },
      "metadata": {
        "location": {
          "latitude": -24.7829,
          "longitude": -65.4232,
          "city": "Salta",
          "region": "Norte"
        }
      }
    },
    {
      "uid": "roadm Choromoro",
      "type": "Roadm",
      "params": {
        "target_pch_out_db": -20,
        "restrictions": {
          "preamp_variety_list": [],
          "booster_variety_list": []
        },
        "per_degree_pch_out_db": {
          "Edfa_booster_roadm Choromoro_to_fiber (Choromoro → Rosario de La Frontera)-": -20,
          "Edfa_booster_roadm Choromoro_to_fiber (Choromoro → Tucuman)-": -20
        }
      },
      "metadata": {
        "location": {
          "latitude": -26.4113,
          "longitude": -65.3198,
          "city": "Choromoro",
          "region": "Norte"
        }
      }
    },
    {
      "uid": "fiber (Benavidez → Campana)-",
      "type": "Fiber",
      "type_variety": "SSMF",
      "params": {
        "length": 80.0,
        "loss_coef": 0.2,
        "length_units": "km",
        "att_in": 0,
        "con_in": 0,
        "con_out": 0
      },
      "metadata": {
        "location": {
          "latitude": -34.285799999999995,
          "longitude": -58.817099999999996,
          "city": null,
          "region": null
        }
      }
    },
    {
      "uid": "fiber (Campana → Zarate)-",
      "type": "Fiber",
      "type_variety": "SSMF",
      "params": {
        "length": 13.0,
        "loss_coef": 0.2,
        "length_units": "km",
        "att_in": 7.4,
        "con_in": 0,
        "con_out": 0
      },
      "metadata": {
        "location": {
          "latitude": -34.129549999999995,
          "longitude": -58.9917,
          "city": null,
          "region": null
        }
      }
    },
    {
      "uid": "fiber (Zarate → Baradero)-",
      "type": "Fiber",
      "type_variety": "SSMF",
      "params": {
        "length": 67.0,
        "loss_coef": 0.2,
        "length_units": "km",
        "att_in": 0,
        "con_in": 0,
        "con_out": 0
      },
      "metadata": {
        "location": {
          "latitude": -33.9539,
          "longitude": -59.26445,
          "city": null,
          "region": null
        }
      }
    },
    {
      "uid": "fiber (Baradero → San Pedro BsAs)-",
      "type": "Fiber",
      "type_variety": "SSMF",
      "params": {
        "length": 34.0,
        "loss_coef": 0.2,
        "length_units": "km",
        "att_in": 3.1999999999999993,
        "con_in": 0,
        "con_out": 0
      },
      "metadata": {
        "location": {
          "latitude": -33.745599999999996,
          "longitude": -59.585499999999996,
          "city": null,
          "region": null
        }
      }
    },
    {
      "uid": "fiber (San Pedro BsAs → San Nicolas)-",
      "type": "Fiber",
      "type_variety": "SSMF",
      "params": {
        "length": 76.0,
        "loss_coef": 0.2,
        "length_units": "km",
        "att_in": 0,
        "con_in": 0,
        "con_out": 0
      },
      "metadata": {
        "location": {
          "latitude": -33.5071,
          "longitude": -59.94565,
          "city": null,
          "region": null
        }
      }
    },
    {
      "uid": "fiber (San Nicolas → Rosario)-",
      "type": "Fiber",
      "type_variety": "SSMF",
      "params": {
        "length": 81.0,
        "loss_coef": 0.2,
        "length_units": "km",
        "att_in": 0,
        "con_in": 0,
        "con_out": 0
      },
      "metadata": {
        "location": {
          "latitude": -33.1409,
          "longitude": -60.43215,
          "city": null,
          "region": null
        }
      }
    },
    {
      "uid": "fiber (Rosario → Victoria)-",
      "type": "Fiber",
      "type_variety": "SSMF",
      "params": {
        "length": 95.0,
        "loss_coef": 0.2,
        "length_units": "km",
        "att_in": 0,
        "con_in": 0,
        "con_out": 0
      },
      "metadata": {
        "location": {
          "latitude": -32.7826,
          "longitude": -60.39705,
          "city": null,
          "region": null
        }
      }
    },
    {
      "uid": "fiber (Victoria → Nogoya)-",
      "type": "Fiber",
      "type_variety": "SSMF",
      "params": {
        "length": 50.0,
        "loss_coef": 0.2,
        "length_units": "km",
        "att_in": 0,
        "con_in": 0,
        "con_out": 0
      },
      "metadata": {
        "location": {
          "latitude": -32.5088,
          "longitude": -59.97125,
          "city": null,
          "region": null
        }
      }
    },
    {
      "uid": "fiber (Nogoya → Basabilbazo)-",
      "type": "Fiber",
      "type_variety": "SSMF",
      "params": {
        "length": 100.0,
        "loss_coef": 0.2,
        "length_units": "km",
        "att_in": 0,
        "con_in": 0,
        "con_out": 0
      },
      "metadata": {
        "location": {
          "latitude": -32.3892,
          "longitude": -59.332750000000004,
          "city": null,
          "region": null
        }
      }
    },
    {
      "uid": "fiber (Basabilbazo → Concepcion del Uruguay)-",
      "type": "Fiber",
      "type_variety": "SSMF",
      "params": {
        "length": 73.0,
        "loss_coef": 0.2,
        "length_units": "km",
        "att_in": 0,
        "con_in": 0,
        "con_out": 0
      },
      "metadata": {
        "location": {
          "latitude": -32.4319,
          "longitude": -58.555,
          "city": null,
          "region": null
        }
      }
    },
    {
      "uid": "fiber (Concepcion del Uruguay → Gualeguaychu)-",
      "type": "Fiber",
      "type_variety": "SSMF",
      "params": {
        "length": 87.0,
        "loss_coef": 0.2,
        "length_units": "km",
        "att_in": 0,
        "con_in": 0,
        "con_out": 0
      },
      "metadata": {
        "location": {
          "latitude": -32.7462,
          "longitude": -58.375299999999996,
          "city": null,
          "region": null
        }
      }
    },
    {
      "uid": "fiber (Gualeguaychu → Ceibas)-",
      "type": "Fiber",
      "type_variety": "SSMF",
      "params": {
        "length": 91.0,
        "loss_coef": 0.2,
        "length_units": "km",
        "att_in": 0,
        "con_in": 0,
        "con_out": 0
      },
      "metadata": {
        "location": {
          "latitude": -33.25425,
          "longitude": -58.661500000000004,
          "city": null,
          "region": null
        }
      }
    },
    {
      "uid": "fiber (Ceibas → Zarate)-",
      "type": "Fiber",
      "type_variety": "SSMF",
      "params": {
        "length": 84.0,
        "loss_coef": 0.2,
        "length_units": "km",
        "att_in": 0,
        "con_in": 0,
        "con_out": 0
      },
      "metadata": {
        "location": {
          "latitude": -33.798249999999996,
          "longitude": -58.9144,
          "city": null,
          "region": null
        }
      }
    },
    {
      "uid": "fiber (Cordoba → Rio Primero)-",
      "type": "Fiber",
      "type_variety": "SSMF",
      "params": {
        "length": 85.0,
        "loss_coef": 0.2,
        "length_units": "km",
        "att_in": 0,
        "con_in": 0,
        "con_out": 0
      },
      "metadata": {
        "location": {
          "latitude": -31.25,
          "longitude": -63.84165,
          "city": null,
          "region": null
        }
      }
    },
    {
      "uid": "fiber (Rio Primero → Arroyito)-",
      "type": "Fiber",
      "type_variety": "SSMF",
      "params": {
        "length": 61.0,
        "loss_coef": 0.2,
        "length_units": "km",
        "att_in": 0,
        "con_in": 0,
        "con_out": 0
      },
      "metadata": {
        "location": {
          "latitude": -31.25175,
          "longitude": -63.275,
          "city": null,
          "region": null
        }
      }
    },
    {
      "uid": "fiber (Arroyito → San Francisco)-",
      "type": "Fiber",
      "type_variety": "SSMF",
      "params": {
        "length": 100.0,
        "loss_coef": 0.2,
        "length_units": "km",
        "att_in": 0,
        "con_in": 0,
        "con_out": 0
      },
      "metadata": {
        "location": {
          "latitude": -31.424100000000003,
          "longitude": -62.56635,
          "city": null,
          "region": null
        }
      }
    },
    {
      "uid": "fiber (San Francisco → Rafaela)-",
      "type": "Fiber",
      "type_variety": "SSMF",
      "params": {
        "length": 87.0,
        "loss_coef": 0.2,
        "length_units": "km",
        "att_in": 0,
        "con_in": 0,
        "con_out": 0
      },
      "metadata": {
        "location": {
          "latitude": -31.33915,
          "longitude": -61.7847,
          "city": null,
          "region": null
        }
      }
    },
    {
      "uid": "fiber (Rafaela → Esperanza)-",
      "type": "Fiber",
      "type_variety": "SSMF",
      "params": {
        "length": 70.0,
        "loss_coef": 0.2,
        "length_units": "km",
        "att_in": 0,
        "con_in": 0,
        "con_out": 0
      },
      "metadata": {
        "location": {
          "latitude": -31.34955,
          "longitude": -61.209199999999996,
          "city": null,
          "region": null
        }
      }
    },
    {
      "uid": "fiber (Esperanza → Santa Fe)-",
      "type": "Fiber",
      "type_variety": "SSMF",
      "params": {
        "length": 55.0,
        "loss_coef": 0.2,
        "length_units": "km",
        "att_in": 0,
        "con_in": 0,
        "con_out": 0
      },
      "metadata": {
        "location": {
          "latitude": -31.5409,
          "longitude": -60.81585,
          "city": null,
          "region": null
        }
      }
    },
    {
      "uid": "fiber (Santa Fe → San Fabian)-",
      "type": "Fiber",
      "type_variety": "SSMF",
      "params": {
        "length": 80.0,
        "loss_coef": 0.2,
        "length_units": "km",
        "att_in": 0,
        "con_in": 0,
        "con_out": 0
      },
      "metadata": {
        "location": {
          "latitude": -31.8846,
          "longitude": -60.841300000000004,
          "city": null,
          "region": null
        }
      }
    },
    {
      "uid": "fiber (San Fabian → Rosario)-",
      "type": "Fiber",
      "type_variety": "SSMF",
      "params": {
        "length": 125.0,
        "loss_coef": 0.2,
        "length_units": "km",
        "att_in": 0,
        "con_in": 0,
        "con_out": 0
      },
      "metadata": {
        "location": {
          "latitude": -32.5415,
          "longitude": -60.81095,
          "city": null,
          "region": null
        }
      }
    },
    {
      "uid": "fiber (Rafaela → Sunchales)-",
      "type": "Fiber",
      "type_variety": "SSMF",
      "params": {
        "length": 50.0,
        "loss_coef": 0.2,
        "length_units": "km",
        "att_in": 0,
        "con_in": 0,
        "con_out": 0
      },
      "metadata": {
        "location": {
          "latitude": -31.09715,
          "longitude": -61.524100000000004,
          "city": null,
          "region": null
        }
      }
    },
    {
      "uid": "fiber (Sunchales → Arrufo)-",
      "type": "Fiber",
      "type_variety": "SSMF",
      "params": {
        "length": 93.0,
        "loss_coef": 0.2,
        "length_units": "km",
        "att_in": 0,
        "con_in": 0,
        "con_out": 0
      },
      "metadata": {
        "location": {
          "latitude": -30.5882,
          "longitude": -61.6456,
          "city": null,
          "region": null
        }
      }
    },
    {
      "uid": "fiber (Arrufo → Ceres)-",
      "type": "Fiber",
      "type_variety": "SSMF",
      "params": {
        "length": 70.0,
        "loss_coef": 0.2,
        "length_units": "km",
        "att_in": 0,
        "con_in": 0,
        "con_out": 0
      },
      "metadata": {
        "location": {
          "latitude": -30.057049999999997,
          "longitude": -61.837900000000005,
          "city": null,
          "region": null
        }
      }
    },
    {
      "uid": "fiber (Ceres → Tostado)-",
      "type": "Fiber",
      "type_variety": "SSMF",
      "params": {
        "length": 85.0,
        "loss_coef": 0.2,
        "length_units": "km",
        "att_in": 0,
        "con_in": 0,
        "con_out": 0
      },
      "metadata": {
        "location": {
          "latitude": -29.55545,
          "longitude": -61.858900000000006,
          "city": null,
          "region": null
        }
      }
    },
    {
      "uid": "fiber (Tostado → Los Pumas)-",
      "type": "Fiber",
      "type_variety": "SSMF",
      "params": {
        "length": 80.0,
        "loss_coef": 0.2,
        "length_units": "km",
        "att_in": 0,
        "con_in": 0,
        "con_out": 0
      },
      "metadata": {
        "location": {
          "latitude": -29.3646,
          "longitude": -61.635850000000005,
          "city": null,
          "region": null
        }
      }
    },
    {
      "uid": "fiber (Los Pumas → La Gallareta)-",
      "type": "Fiber",
      "type_variety": "SSMF",
      "params": {
        "length": 87.0,
        "loss_coef": 0.2,
        "length_units": "km",
        "att_in": 0,
        "con_in": 0,
        "con_out": 0
      },
      "metadata": {
        "location": {
          "latitude": -29.54165,
          "longitude": -60.93915,
          "city": null,
          "region": null
        }
      }
    },
    {
      "uid": "fiber (La Gallareta → Vera)-",
      "type": "Fiber",
      "type_variety": "SSMF",
      "params": {
        "length": 40.0,
        "loss_coef": 0.2,
        "length_units": "km",
        "att_in": 2.0,
        "con_in": 0,
        "con_out": 0
      },
      "metadata": {
        "location": {
          "latitude": -29.5213,
          "longitude": -60.29545,
          "city": null,
          "region": null
        }
      }
    },
    {
      "uid": "fiber (Vera → Intiyaco)-",
      "type": "Fiber",
      "type_variety": "SSMF",
      "params": {
        "length": 94.0,
        "loss_coef": 0.2,
        "length_units": "km",
        "att_in": 0,
        "con_in": 0,
        "con_out": 0
      },
      "metadata": {
        "location": {
          "latitude": -29.06775,
          "longitude": -60.1422,
          "city": null,
          "region": null
        }
      }
    },
    {
      "uid": "fiber (Intiyaco → Los Amores)-",
      "type": "Fiber",
      "type_variety": "SSMF",
      "params": {
        "length": 70.0,
        "loss_coef": 0.2,
        "length_units": "km",
        "att_in": 0,
        "con_in": 0,
        "con_out": 0
      },
      "metadata": {
        "location": {
          "latitude": -28.4631,
          "longitude": -60.01090000000001,
          "city": null,
          "region": null
        }
      }
    },
    {
      "uid": "fiber (Los Amores → Charadai)-",
      "type": "Fiber",
      "type_variety": "SSMF",
      "params": {
        "length": 56.0,
        "loss_coef": 0.2,
        "length_units": "km",
        "att_in": 0,
        "con_in": 0,
        "con_out": 0
      },
      "metadata": {
        "location": {
          "latitude": -27.94165,
          "longitude": -60.45,
          "city": null,
          "region": null
        }
      }
    },
    {
      "uid": "fiber (Charadai → Resistencia)-",
      "type": "Fiber",
      "type_variety": "SSMF",
      "params": {
        "length": 107.0,
        "loss_coef": 0.2,
        "length_units": "km",
        "att_in": 0,
        "con_in": 0,
        "con_out": 0
      },
      "metadata": {
        "location": {
          "latitude": -27.54235,
          "longitude": -59.96835,
          "city": null,
          "region": null
        }
      }
    },
    {
      "uid": "fiber (Santa Fe → Parana)-",
      "type": "Fiber",
      "type_variety": "SSMF",
      "params": {
        "length": 40.0,
        "loss_coef": 0.2,
        "length_units": "km",
        "att_in": 2.0,
        "con_in": 0,
        "con_out": 0
      },
      "metadata": {
        "location": {
          "latitude": -31.68715,
          "longitude": -60.60575,
          "city": null,
          "region": null
        }
      }
    },
    {
      "uid": "fiber (Parana → Cerrito)-",
      "type": "Fiber",
      "type_variety": "SSMF",
      "params": {
        "length": 59.0,
        "loss_coef": 0.2,
        "length_units": "km",
        "att_in": 0,
        "con_in": 0,
        "con_out": 0
      },
      "metadata": {
        "location": {
          "latitude": -31.662300000000002,
          "longitude": -60.2891,
          "city": null,
          "region": null
        }
      }
    },
    {
      "uid": "fiber (Cerrito → La Paz)-",
      "type": "Fiber",
      "type_variety": "SSMF",
      "params": {
        "length": 123.0,
        "loss_coef": 0.2,
        "length_units": "km",
        "att_in": 0,
        "con_in": 0,
        "con_out": 0
      },
      "metadata": {
        "location": {
          "latitude": -31.162550000000003,
          "longitude": -59.85595,
          "city": null,
          "region": null
        }
      }
    },
    {
      "uid": "fiber (La Paz → Esquina)-",
      "type": "Fiber",
      "type_variety": "SSMF",
      "params": {
        "length": 92.0,
        "loss_coef": 0.2,
        "length_units": "km",
        "att_in": 0,
        "con_in": 0,
        "con_out": 0
      },
      "metadata": {
        "location": {
          "latitude": -30.3796,
          "longitude": -59.5887,
          "city": null,
          "region": null
        }
      }
    },
    {
      "uid": "fiber (Esquina → Goya)-",
      "type": "Fiber",
      "type_variety": "SSMF",
      "params": {
        "length": 121.0,
        "loss_coef": 0.2,
        "length_units": "km",
        "att_in": 0,
        "con_in": 0,
        "con_out": 0
      },
      "metadata": {
        "location": {
          "latitude": -29.57865,
          "longitude": -59.397800000000004,
          "city": null,
          "region": null
        }
      }
    },
    {
      "uid": "fiber (Goya → Bella Vista)-",
      "type": "Fiber",
      "type_variety": "SSMF",
      "params": {
        "length": 91.0,
        "loss_coef": 0.2,
        "length_units": "km",
        "att_in": 0,
        "con_in": 0,
        "con_out": 0
      },
      "metadata": {
        "location": {
          "latitude": -28.8285,
          "longitude": -59.14995,
          "city": null,
          "region": null
        }
      }
    },
    {
      "uid": "fiber (Bella Vista → Empedrado)-",
      "type": "Fiber",
      "type_variety": "SSMF",
      "params": {
        "length": 90.0,
        "loss_coef": 0.2,
        "length_units": "km",
        "att_in": 0,
        "con_in": 0,
        "con_out": 0
      },
      "metadata": {
        "location": {
          "latitude": -28.2348,
          "longitude": -58.91985,
          "city": null,
          "region": null
        }
      }
    },
    {
      "uid": "fiber (Empedrado → Corrientes)-",
      "type": "Fiber",
      "type_variety": "SSMF",
      "params": {
        "length": 68.0,
        "loss_coef": 0.2,
        "length_units": "km",
        "att_in": 0,
        "con_in": 0,
        "con_out": 0
      },
      "metadata": {
        "location": {
          "latitude": -27.716549999999998,
          "longitude": -58.81865,
          "city": null,
          "region": null
        }
      }
    },
    {
      "uid": "fiber (Corrientes → Resistencia)-",
      "type": "Fiber",
      "type_variety": "SSMF",
      "params": {
        "length": 22.0,
        "loss_coef": 0.2,
        "length_units": "km",
        "att_in": 5.6,
        "con_in": 0,
        "con_out": 0
      },
      "metadata": {
        "location": {
          "latitude": -27.466,
          "longitude": -58.910399999999996,
          "city": null,
          "region": null
        }
      }
    },
    {
      "uid": "fiber (Resistencia → Presidencia de La Plaza)-",
      "type": "Fiber",
      "type_variety": "SSMF",
      "params": {
        "length": 110.0,
        "loss_coef": 0.2,
        "length_units": "km",
        "att_in": 0,
        "con_in": 0,
        "con_out": 0
      },
      "metadata": {
        "location": {
          "latitude": -27.22655,
          "longitude": -59.415350000000004,
          "city": null,
          "region": null
        }
      }
    },
    {
      "uid": "fiber (Presidencia de La Plaza → Presidencia Roque Saenz Peña)-",
      "type": "Fiber",
      "type_variety": "SSMF",
      "params": {
        "length": 67.0,
        "loss_coef": 0.2,
        "length_units": "km",
        "att_in": 0,
        "con_in": 0,
        "con_out": 0
      },
      "metadata": {
        "location": {
          "latitude": -26.89345,
          "longitude": -60.141000000000005,
          "city": null,
          "region": null
        }
      }
    },
    {
      "uid": "fiber (Presidencia Roque Saenz Peña → Pampa del Infierno)-",
      "type": "Fiber",
      "type_variety": "SSMF",
      "params": {
        "length": 86.0,
        "loss_coef": 0.2,
        "length_units": "km",
        "att_in": 0,
        "con_in": 0,
        "con_out": 0
      },
      "metadata": {
        "location": {
          "latitude": -26.646549999999998,
          "longitude": -60.80685,
          "city": null,
          "region": null
        }
      }
    },
    {
      "uid": "fiber (Pampa del Infierno → Pampa de Los Guanacos)-",
      "type": "Fiber",
      "type_variety": "SSMF",
      "params": {
        "length": 80.0,
        "loss_coef": 0.2,
        "length_units": "km",
        "att_in": 0,
        "con_in": 0,
        "con_out": 0
      },
      "metadata": {
        "location": {
          "latitude": -26.36875,
          "longitude": -61.5062,
          "city": null,
          "region": null
        }
      }
    },
    {
      "uid": "fiber (Pampa de Los Guanacos → Monte Quemado)-",
      "type": "Fiber",
      "type_variety": "SSMF",
      "params": {
        "length": 114.0,
        "loss_coef": 0.2,
        "length_units": "km",
        "att_in": 0,
        "con_in": 0,
        "con_out": 0
      },
      "metadata": {
        "location": {
          "latitude": -26.0186,
          "longitude": -62.33095,
          "city": null,
          "region": null
        }
      }
    },
    {
      "uid": "fiber (Monte Quemado → Taco Pozo)-",
      "type": "Fiber",
      "type_variety": "SSMF",
      "params": {
        "length": 54.0,
        "loss_coef": 0.2,
        "length_units": "km",
        "att_in": 0,
        "con_in": 0,
        "con_out": 0
      },
      "metadata": {
        "location": {
          "latitude": -25.7117,
          "longitude": -63.046400000000006,
          "city": null,
          "region": null
        }
      }
    },
    {
      "uid": "fiber (Taco Pozo → El Quebrachal)-",
      "type": "Fiber",
      "type_variety": "SSMF",
      "params": {
        "length": 89.0,
        "loss_coef": 0.2,
        "length_units": "km",
        "att_in": 0,
        "con_in": 0,
        "con_out": 0
      },
      "metadata": {
        "location": {
          "latitude": -25.4754,
          "longitude": -63.64455,
          "city": null,
          "region": null
        }
      }
    },
    {
      "uid": "fiber (El Quebrachal → El Tunal)-",
      "type": "Fiber",
      "type_variety": "SSMF",
      "params": {
        "length": 68.0,
        "loss_coef": 0.2,
        "length_units": "km",
        "att_in": 0,
        "con_in": 0,
        "con_out": 0
      },
      "metadata": {
        "location": {
          "latitude": -25.29385,
          "longitude": -64.2063,
          "city": null,
          "region": null
        }
      }
    },
    {
      "uid": "fiber (El Tunal → San Jose de Metan)-",
      "type": "Fiber",
      "type_variety": "SSMF",
      "params": {
        "length": 78.0,
        "loss_coef": 0.2,
        "length_units": "km",
        "att_in": 0,
        "con_in": 0,
        "con_out": 0
      },
      "metadata": {
        "location": {
          "latitude": -25.3733,
          "longitude": -64.68154999999999,
          "city": null,
          "region": null
        }
      }
    },
    {
      "uid": "fiber (San Jose de Metan → Rosario de La Frontera)-",
      "type": "Fiber",
      "type_variety": "SSMF",
      "params": {
        "length": 39.0,
        "loss_coef": 0.2,
        "length_units": "km",
        "att_in": 2.1999999999999993,
        "con_in": 0,
        "con_out": 0
      },
      "metadata": {
        "location": {
          "latitude": -25.6466,
          "longitude": -64.97025,
          "city": null,
          "region": null
        }
      }
    },
    {
      "uid": "fiber (Rosario de La Frontera → Choromoro)-",
      "type": "Fiber",
      "type_variety": "SSMF",
      "params": {
        "length": 80.0,
        "loss_coef": 0.2,
        "length_units": "km",
        "att_in": 0,
        "con_in": 0,
        "con_out": 0
      },
      "metadata": {
        "location": {
          "latitude": -26.1053,
          "longitude": -65.14415,
          "city": null,
          "region": null
        }
      }
    },
    {
      "uid": "fiber (Choromoro → Tucuman)-",
      "type": "Fiber",
      "type_variety": "SSMF",
      "params": {
        "length": 62.0,
        "loss_coef": 0.2,
        "length_units": "km",
        "att_in": 0,
        "con_in": 0,
        "con_out": 0
      },
      "metadata": {
        "location": {
          "latitude": -26.609949999999998,
          "longitude": -65.26955000000001,
          "city": null,
          "region": null
        }
      }
    },
    {
      "uid": "fiber (Cordoba → Jesus Maria)-",
      "type": "Fiber",
      "type_variety": "SSMF",
      "params": {
        "length": 54.0,
        "loss_coef": 0.2,
        "length_units": "km",
        "att_in": 0,
        "con_in": 0,
        "con_out": 0
      },
      "metadata": {
        "location": {
          "latitude": -31.1991,
          "longitude": -64.13875,
          "city": null,
          "region": null
        }
      }
    },
    {
      "uid": "fiber (Jesus Maria → Dean Funes)-",
      "type": "Fiber",
      "type_variety": "SSMF",
      "params": {
        "length": 85.0,
        "loss_coef": 0.2,
        "length_units": "km",
        "att_in": 0,
        "con_in": 0,
        "con_out": 0
      },
      "metadata": {
        "location": {
          "latitude": -30.70325,
          "longitude": -64.2218,
          "city": null,
          "region": null
        }
      }
    },
    {
      "uid": "fiber (Dean Funes → Lucio V Mansilla)-",
      "type": "Fiber",
      "type_variety": "SSMF",
      "params": {
        "length": 82.0,
        "loss_coef": 0.2,
        "length_units": "km",
        "att_in": 0,
        "con_in": 0,
        "con_out": 0
      },
      "metadata": {
        "location": {
          "latitude": -30.1154,
          "longitude": -64.52940000000001,
          "city": null,
          "region": null
        }
      }
    },
    {
      "uid": "fiber (Lucio V Mansilla → Recreo)-",
      "type": "Fiber",
      "type_variety": "SSMF",
      "params": {
        "length": 71.0,
        "loss_coef": 0.2,
        "length_units": "km",
        "att_in": 0,
        "con_in": 0,
        "con_out": 0
      },
      "metadata": {
        "location": {
          "latitude": -29.542,
          "longitude": -64.8848,
          "city": null,
          "region": null
        }
      }
    },
    {
      "uid": "fiber (Recreo → Frias)-",
      "type": "Fiber",
      "type_variety": "SSMF",
      "params": {
        "length": 74.0,
        "loss_coef": 0.2,
        "length_units": "km",
        "att_in": 0,
        "con_in": 0,
        "con_out": 0
      },
      "metadata": {
        "location": {
          "latitude": -28.9579,
          "longitude": -65.0945,
          "city": null,
          "region": null
        }
      }
    },
    {
      "uid": "fiber (Frias → Laprida)-",
      "type": "Fiber",
      "type_variety": "SSMF",
      "params": {
        "length": 70.0,
        "loss_coef": 0.2,
        "length_units": "km",
        "att_in": 0,
        "con_in": 0,
        "con_out": 0
      },
      "metadata": {
        "location": {
          "latitude": -28.6938,
          "longitude": -64.90605,
          "city": null,
          "region": null
        }
      }
    },
    {
      "uid": "fiber (Laprida → Santiago del Estero)-",
      "type": "Fiber",
      "type_variety": "SSMF",
      "params": {
        "length": 102.0,
        "loss_coef": 0.2,
        "length_units": "km",
        "att_in": 0,
        "con_in": 0,
        "con_out": 0
      },
      "metadata": {
        "location": {
          "latitude": -28.272550000000003,
          "longitude": -64.4724,
          "city": null,
          "region": null
        }
      }
    },
    {
      "uid": "fiber (Santiago del Estero → El Charco)-",
      "type": "Fiber",
      "type_variety": "SSMF",
      "params": {
        "length": 93.0,
        "loss_coef": 0.2,
        "length_units": "km",
        "att_in": 0,
        "con_in": 0,
        "con_out": 0
      },
      "metadata": {
        "location": {
          "latitude": -27.51195,
          "longitude": -64.48124999999999,
          "city": null,
          "region": null
        }
      }
    },
    {
      "uid": "fiber (El Charco → Tucuman)-",
      "type": "Fiber",
      "type_variety": "SSMF",
      "params": {
        "length": 100.0,
        "loss_coef": 0.2,
        "length_units": "km",
        "att_in": 0,
        "con_in": 0,
        "con_out": 0
      },
      "metadata": {
        "location": {
          "latitude": -27.0187,
          "longitude": -64.96015,
          "city": null,
          "region": null
        }
      }
    },
    {
      "uid": "fiber (Mendoza → Villa Tulumaya)-",
      "type": "Fiber",
      "type_variety": "SSMF",
      "params": {
        "length": 45.0,
        "loss_coef": 0.2,
        "length_units": "km",
        "att_in": 1.0,
        "con_in": 0,
        "con_out": 0
      },
      "metadata": {
        "location": {
          "latitude": -32.803200000000004,
          "longitude": -68.70554999999999,
          "city": null,
          "region": null
        }
      }
    },
    {
      "uid": "fiber (Villa Tulumaya → Villa Media Agua)-",
      "type": "Fiber",
      "type_variety": "SSMF",
      "params": {
        "length": 100.0,
        "loss_coef": 0.2,
        "length_units": "km",
        "att_in": 0,
        "con_in": 0,
        "con_out": 0
      },
      "metadata": {
        "location": {
          "latitude": -32.34985,
          "longitude": -68.49535,
          "city": null,
          "region": null
        }
      }
    },
    {
      "uid": "fiber (Villa Media Agua → Caucete)-",
      "type": "Fiber",
      "type_variety": "SSMF",
      "params": {
        "length": 52.0,
        "loss_coef": 0.2,
        "length_units": "km",
        "att_in": 0,
        "con_in": 0,
        "con_out": 0
      },
      "metadata": {
        "location": {
          "latitude": -31.816499999999998,
          "longitude": -68.3535,
          "city": null,
          "region": null
        }
      }
    },
    {
      "uid": "fiber (Caucete → San Juan)-",
      "type": "Fiber",
      "type_variety": "SSMF",
      "params": {
        "length": 40.0,
        "loss_coef": 0.2,
        "length_units": "km",
        "att_in": 2.0,
        "con_in": 0,
        "con_out": 0
      },
      "metadata": {
        "location": {
          "latitude": -31.5921,
          "longitude": -68.40455,
          "city": null,
          "region": null
        }
      }
    },
    {
      "uid": "fiber (San Juan → Vallecito)-",
      "type": "Fiber",
      "type_variety": "SSMF",
      "params": {
        "length": 85.0,
        "loss_coef": 0.2,
        "length_units": "km",
        "att_in": 0,
        "con_in": 0,
        "con_out": 0
      },
      "metadata": {
        "location": {
          "latitude": -31.50535,
          "longitude": -67.91425000000001,
          "city": null,
          "region": null
        }
      }
    },
    {
      "uid": "fiber (Vallecito → Marayes)-",
      "type": "Fiber",
      "type_variety": "SSMF",
      "params": {
        "length": 76.0,
        "loss_coef": 0.2,
        "length_units": "km",
        "att_in": 0,
        "con_in": 0,
        "con_out": 0
      },
      "metadata": {
        "location": {
          "latitude": -31.4765,
          "longitude": -67.3024,
          "city": null,
          "region": null
        }
      }
    },
    {
      "uid": "fiber (Marayes → Chepes)-",
      "type": "Fiber",
      "type_variety": "SSMF",
      "params": {
        "length": 80.0,
        "loss_coef": 0.2,
        "length_units": "km",
        "att_in": 0,
        "con_in": 0,
        "con_out": 0
      },
      "metadata": {
        "location": {
          "latitude": -31.40645,
          "longitude": -66.9471,
          "city": null,
          "region": null
        }
      }
    },
    {
      "uid": "fiber (Chepes → Milagro)-",
      "type": "Fiber",
      "type_variety": "SSMF",
      "params": {
        "length": 68.0,
        "loss_coef": 0.2,
        "length_units": "km",
        "att_in": 0,
        "con_in": 0,
        "con_out": 0
      },
      "metadata": {
        "location": {
          "latitude": -30.968200000000003,
          "longitude": -66.2959,
          "city": null,
          "region": null
        }
      }
    },
    {
      "uid": "fiber (Milagro → Serrezuela)-",
      "type": "Fiber",
      "type_variety": "SSMF",
      "params": {
        "length": 82.0,
        "loss_coef": 0.2,
        "length_units": "km",
        "att_in": 0,
        "con_in": 0,
        "con_out": 0
      },
      "metadata": {
        "location": {
          "latitude": -30.3,
          "longitude": -65.5,
          "city": null,
          "region": null
        }
      }
    },
    {
      "uid": "fiber (Serrezuela → Cruz del Eje)-",
      "type": "Fiber",
      "type_variety": "SSMF",
      "params": {
        "length": 72.0,
        "loss_coef": 0.2,
        "length_units": "km",
        "att_in": 0,
        "con_in": 0,
        "con_out": 0
      },
      "metadata": {
        "location": {
          "latitude": -30.36665,
          "longitude": -64.9,
          "city": null,
          "region": null
        }
      }
    },
    {
      "uid": "fiber (Cruz del Eje → La Falda)-",
      "type": "Fiber",
      "type_variety": "SSMF",
      "params": {
        "length": 73.0,
        "loss_coef": 0.2,
        "length_units": "km",
        "att_in": 0,
        "con_in": 0,
        "con_out": 0
      },
      "metadata": {
        "location": {
          "latitude": -30.91665,
          "longitude": -64.64165,
          "city": null,
          "region": null
        }
      }
    },
    {
      "uid": "fiber (La Falda → Cordoba)-",
      "type": "Fiber",
      "type_variety": "SSMF",
      "params": {
        "length": 85.0,
        "loss_coef": 0.2,
        "length_units": "km",
        "att_in": 0,
        "con_in": 0,
        "con_out": 0
      },
      "metadata": {
        "location": {
          "latitude": -31.25835,
          "longitude": -64.33330000000001,
          "city": null,
          "region": null
        }
      }
    },
    {
      "uid": "fiber (Resistencia → La Leonesa)-",
      "type": "Fiber",
      "type_variety": "SSMF",
      "params": {
        "length": 73.0,
        "loss_coef": 0.2,
        "length_units": "km",
        "att_in": 0,
        "con_in": 0,
        "con_out": 0
      },
      "metadata": {
        "location": {
          "latitude": -27.24675,
          "longitude": -58.84605,
          "city": null,
          "region": null
        }
      }
    },
    {
      "uid": "fiber (La Leonesa → Puerto Eva Peron)-",
      "type": "Fiber",
      "type_variety": "SSMF",
      "params": {
        "length": 70.0,
        "loss_coef": 0.2,
        "length_units": "km",
        "att_in": 0,
        "con_in": 0,
        "con_out": 0
      },
      "metadata": {
        "location": {
          "latitude": -26.85275,
          "longitude": -58.669399999999996,
          "city": null,
          "region": null
        }
      }
    },
    {
      "uid": "fiber (Puerto Eva Peron → Formosa)-",
      "type": "Fiber",
      "type_variety": "SSMF",
      "params": {
        "length": 78.0,
        "loss_coef": 0.2,
        "length_units": "km",
        "att_in": 0,
        "con_in": 0,
        "con_out": 0
      },
      "metadata": {
        "location": {
          "latitude": -26.424149999999997,
          "longitude": -58.40325,
          "city": null,
          "region": null
        }
      }
    },
    {
      "uid": "fiber (Formosa → San Hilario)-",
      "type": "Fiber",
      "type_variety": "SSMF",
      "params": {
        "length": 65.0,
        "loss_coef": 0.2,
        "length_units": "km",
        "att_in": 0,
        "con_in": 0,
        "con_out": 0
      },
      "metadata": {
        "location": {
          "latitude": -26.109099999999998,
          "longitude": -58.41155,
          "city": null,
          "region": null
        }
      }
    },
    {
      "uid": "fiber (San Hilario → Pirane)-",
      "type": "Fiber",
      "type_variety": "SSMF",
      "params": {
        "length": 75.0,
        "loss_coef": 0.2,
        "length_units": "km",
        "att_in": 0,
        "con_in": 0,
        "con_out": 0
      },
      "metadata": {
        "location": {
          "latitude": -25.882849999999998,
          "longitude": -58.879400000000004,
          "city": null,
          "region": null
        }
      }
    },
    {
      "uid": "fiber (Pirane → Comandante Fontana)-",
      "type": "Fiber",
      "type_variety": "SSMF",
      "params": {
        "length": 80.0,
        "loss_coef": 0.2,
        "length_units": "km",
        "att_in": 0,
        "con_in": 0,
        "con_out": 0
      },
      "metadata": {
        "location": {
          "latitude": -25.5324,
          "longitude": -59.3952,
          "city": null,
          "region": null
        }
      }
    },
    {
      "uid": "fiber (Comandante Fontana → Estanislao del Campo)-",
      "type": "Fiber",
      "type_variety": "SSMF",
      "params": {
        "length": 55.0,
        "loss_coef": 0.2,
        "length_units": "km",
        "att_in": 0,
        "con_in": 0,
        "con_out": 0
      },
      "metadata": {
        "location": {
          "latitude": -25.19295,
          "longitude": -59.88775,
          "city": null,
          "region": null
        }
      }
    },
    {
      "uid": "fiber (Estanislao del Campo → Las Lomitas)-",
      "type": "Fiber",
      "type_variety": "SSMF",
      "params": {
        "length": 64.0,
        "loss_coef": 0.2,
        "length_units": "km",
        "att_in": 0,
        "con_in": 0,
        "con_out": 0
      },
      "metadata": {
        "location": {
          "latitude": -24.881549999999997,
          "longitude": -60.343450000000004,
          "city": null,
          "region": null
        }
      }
    },
    {
      "uid": "fiber (Las Lomitas → Laguna Yema)-",
      "type": "Fiber",
      "type_variety": "SSMF",
      "params": {
        "length": 89.0,
        "loss_coef": 0.2,
        "length_units": "km",
        "att_in": 0,
        "con_in": 0,
        "con_out": 0
      },
      "metadata": {
        "location": {
          "latitude": -24.479799999999997,
          "longitude": -60.88815,
          "city": null,
          "region": null
        }
      }
    },
    {
      "uid": "fiber (Laguna Yema → Ing Guillermo Juarez)-",
      "type": "Fiber",
      "type_variety": "SSMF",
      "params": {
        "length": 78.0,
        "loss_coef": 0.2,
        "length_units": "km",
        "att_in": 0,
        "con_in": 0,
        "con_out": 0
      },
      "metadata": {
        "location": {
          "latitude": -24.075,
          "longitude": -61.51665,
          "city": null,
          "region": null
        }
      }
    },
    {
      "uid": "fiber (Ing Guillermo Juarez → Cap Juan Page)-",
      "type": "Fiber",
      "type_variety": "SSMF",
      "params": {
        "length": 62.0,
        "loss_coef": 0.2,
        "length_units": "km",
        "att_in": 0,
        "con_in": 0,
        "con_out": 0
      },
      "metadata": {
        "location": {
          "latitude": -23.85835,
          "longitude": -61.89165,
          "city": null,
          "region": null
        }
      }
    },
    {
      "uid": "fiber (Cap Juan Page → Coronel Juan Sola)-",
      "type": "Fiber",
      "type_variety": "SSMF",
      "params": {
        "length": 61.0,
        "loss_coef": 0.2,
        "length_units": "km",
        "att_in": 0,
        "con_in": 0,
        "con_out": 0
      },
      "metadata": {
        "location": {
          "latitude": -23.6917,
          "longitude": -61.96665,
          "city": null,
          "region": null
        }
      }
    },
    {
      "uid": "fiber (Coronel Juan Sola → Hickman)-",
      "type": "Fiber",
      "type_variety": "SSMF",
      "params": {
        "length": 80.0,
        "loss_coef": 0.2,
        "length_units": "km",
        "att_in": 0,
        "con_in": 0,
        "con_out": 0
      },
      "metadata": {
        "location": {
          "latitude": -23.53335,
          "longitude": -62.05,
          "city": null,
          "region": null
        }
      }
    },
    {
      "uid": "fiber (Hickman → Embarcacion)-",
      "type": "Fiber",
      "type_variety": "SSMF",
      "params": {
        "length": 59.0,
        "loss_coef": 0.2,
        "length_units": "km",
        "att_in": 0,
        "con_in": 0,
        "con_out": 0
      },
      "metadata": {
        "location": {
          "latitude": -23.25835,
          "longitude": -63.099999999999994,
          "city": null,
          "region": null
        }
      }
    },
    {
      "uid": "fiber (Embarcacion → Pichanal)-",
      "type": "Fiber",
      "type_variety": "SSMF",
      "params": {
        "length": 21.0,
        "loss_coef": 0.2,
        "length_units": "km",
        "att_in": 5.8,
        "con_in": 0,
        "con_out": 0
      },
      "metadata": {
        "location": {
          "latitude": -23.15835,
          "longitude": -64.15835,
          "city": null,
          "region": null
        }
      }
    },
    {
      "uid": "fiber (Pichanal → Lib Gral San Martin)-",
      "type": "Fiber",
      "type_variety": "SSMF",
      "params": {
        "length": 90.0,
        "loss_coef": 0.2,
        "length_units": "km",
        "att_in": 0,
        "con_in": 0,
        "con_out": 0
      },
      "metadata": {
        "location": {
          "latitude": -23.55,
          "longitude": -64.5,
          "city": null,
          "region": null
        }
      }
    },
    {
      "uid": "fiber (Lib Gral San Martin → San Pedro Jujuy)-",
      "type": "Fiber",
      "type_variety": "SSMF",
      "params": {
        "length": 56.0,
        "loss_coef": 0.2,
        "length_units": "km",
        "att_in": 0,
        "con_in": 0,
        "con_out": 0
      },
      "metadata": {
        "location": {
          "latitude": -24.01665,
          "longitude": -64.82499999999999,
          "city": null,
          "region": null
        }
      }
    },
    {
      "uid": "fiber (San Pedro Jujuy → San Salvador de Jujuy)-",
      "type": "Fiber",
      "type_variety": "SSMF",
      "params": {
        "length": 70.0,
        "loss_coef": 0.2,
        "length_units": "km",
        "att_in": 0,
        "con_in": 0,
        "con_out": 0
      },
      "metadata": {
        "location": {
          "latitude": -24.20955,
          "longitude": -65.0831,
          "city": null,
          "region": null
        }
      }
    },
    {
      "uid": "fiber (Corrientes → Ramada Paso)-",
      "type": "Fiber",
      "type_variety": "SSMF",
      "params": {
        "length": 63.0,
        "loss_coef": 0.2,
        "length_units": "km",
        "att_in": 0,
        "con_in": 0,
        "con_out": 0
      },
      "metadata": {
        "location": {
          "latitude": -27.427,
          "longitude": -58.572649999999996,
          "city": null,
          "region": null
        }
      }
    },
    {
      "uid": "fiber (Ramada Paso → Ita Ibate)-",
      "type": "Fiber",
      "type_variety": "SSMF",
      "params": {
        "length": 110.0,
        "loss_coef": 0.2,
        "length_units": "km",
        "att_in": 0,
        "con_in": 0,
        "con_out": 0
      },
      "metadata": {
        "location": {
          "latitude": -27.6496,
          "longitude": -57.82465,
          "city": null,
          "region": null
        }
      }
    },
    {
      "uid": "fiber (Ita Ibate → Ituzaingo)-",
      "type": "Fiber",
      "type_variety": "SSMF",
      "params": {
        "length": 76.0,
        "loss_coef": 0.2,
        "length_units": "km",
        "att_in": 0,
        "con_in": 0,
        "con_out": 0
      },
      "metadata": {
        "location": {
          "latitude": -27.762900000000002,
          "longitude": -57.00255,
          "city": null,
          "region": null
        }
      }
    },
    {
      "uid": "fiber (Ituzaingo → Posadas)-",
      "type": "Fiber",
      "type_variety": "SSMF",
      "params": {
        "length": 95.0,
        "loss_coef": 0.2,
        "length_units": "km",
        "att_in": 0,
        "con_in": 0,
        "con_out": 0
      },
      "metadata": {
        "location": {
          "latitude": -27.48335,
          "longitude": -56.31685,
          "city": null,
          "region": null
        }
      }
    },
    {
      "uid": "fiber (Parana → Hasenkamp)-",
      "type": "Fiber",
      "type_variety": "SSMF",
      "params": {
        "length": 92.0,
        "loss_coef": 0.2,
        "length_units": "km",
        "att_in": 0,
        "con_in": 0,
        "con_out": 0
      },
      "metadata": {
        "location": {
          "latitude": -31.6259,
          "longitude": -60.1737,
          "city": null,
          "region": null
        }
      }
    },
    {
      "uid": "fiber (Hasenkamp → Sauce de Luna)-",
      "type": "Fiber",
      "type_variety": "SSMF",
      "params": {
        "length": 80.0,
        "loss_coef": 0.2,
        "length_units": "km",
        "att_in": 0,
        "con_in": 0,
        "con_out": 0
      },
      "metadata": {
        "location": {
          "latitude": -31.37395,
          "longitude": -59.52785,
          "city": null,
          "region": null
        }
      }
    },
    {
      "uid": "fiber (Sauce de Luna → Nueva Vizcaya)-",
      "type": "Fiber",
      "type_variety": "SSMF",
      "params": {
        "length": 82.0,
        "loss_coef": 0.2,
        "length_units": "km",
        "att_in": 0,
        "con_in": 0,
        "con_out": 0
      },
      "metadata": {
        "location": {
          "latitude": -31.102,
          "longitude": -58.916799999999995,
          "city": null,
          "region": null
        }
      }
    },
    {
      "uid": "fiber (Nueva Vizcaya → Concordia)-",
      "type": "Fiber",
      "type_variety": "SSMF",
      "params": {
        "length": 88.0,
        "loss_coef": 0.2,
        "length_units": "km",
        "att_in": 0,
        "con_in": 0,
        "con_out": 0
      },
      "metadata": {
        "location": {
          "latitude": -31.17975,
          "longitude": -58.31735,
          "city": null,
          "region": null
        }
      }
    },
    {
      "uid": "fiber (Concordia → Chajari)-",
      "type": "Fiber",
      "type_variety": "SSMF",
      "params": {
        "length": 84.0,
        "loss_coef": 0.2,
        "length_units": "km",
        "att_in": 0,
        "con_in": 0,
        "con_out": 0
      },
      "metadata": {
        "location": {
          "latitude": -31.07145,
          "longitude": -58.0021,
          "city": null,
          "region": null
        }
      }
    },
    {
      "uid": "fiber (Chajari → Monte Caseros)-",
      "type": "Fiber",
      "type_variety": "SSMF",
      "params": {
        "length": 78.0,
        "loss_coef": 0.2,
        "length_units": "km",
        "att_in": 0,
        "con_in": 0,
        "con_out": 0
      },
      "metadata": {
        "location": {
          "latitude": -30.50195,
          "longitude": -57.80975,
          "city": null,
          "region": null
        }
      }
    },
    {
      "uid": "fiber (Monte Caseros → Paso de Los Libres)-",
      "type": "Fiber",
      "type_variety": "SSMF",
      "params": {
        "length": 103.0,
        "loss_coef": 0.2,
        "length_units": "km",
        "att_in": 0,
        "con_in": 0,
        "con_out": 0
      },
      "metadata": {
        "location": {
          "latitude": -29.9839,
          "longitude": -57.361450000000005,
          "city": null,
          "region": null
        }
      }
    },
    {
      "uid": "fiber (Paso de Los Libres → Guaviravi)-",
      "type": "Fiber",
      "type_variety": "SSMF",
      "params": {
        "length": 75.0,
        "loss_coef": 0.2,
        "length_units": "km",
        "att_in": 0,
        "con_in": 0,
        "con_out": 0
      },
      "metadata": {
        "location": {
          "latitude": -29.541150000000002,
          "longitude": -56.957750000000004,
          "city": null,
          "region": null
        }
      }
    },
    {
      "uid": "fiber (Guaviravi → Alvear)-",
      "type": "Fiber",
      "type_variety": "SSMF",
      "params": {
        "length": 48.0,
        "loss_coef": 0.2,
        "length_units": "km",
        "att_in": 0.40000000000000036,
        "con_in": 0,
        "con_out": 0
      },
      "metadata": {
        "location": {
          "latitude": -29.2326,
          "longitude": -56.6896,
          "city": null,
          "region": null
        }
      }
    },
    {
      "uid": "fiber (Alvear → Santo Tome)-",
      "type": "Fiber",
      "type_variety": "SSMF",
      "params": {
        "length": 89.0,
        "loss_coef": 0.2,
        "length_units": "km",
        "att_in": 0,
        "con_in": 0,
        "con_out": 0
      },
      "metadata": {
        "location": {
          "latitude": -28.8234,
          "longitude": -56.300200000000004,
          "city": null,
          "region": null
        }
      }
    },
    {
      "uid": "fiber (Santo Tome → Apostoles)-",
      "type": "Fiber",
      "type_variety": "SSMF",
      "params": {
        "length": 110.0,
        "loss_coef": 0.2,
        "length_units": "km",
        "att_in": 0,
        "con_in": 0,
        "con_out": 0
      },
      "metadata": {
        "location": {
          "latitude": -28.2335,
          "longitude": -55.908500000000004,
          "city": null,
          "region": null
        }
      }
    },
    {
      "uid": "fiber (Apostoles → San Jose)-",
      "type": "Fiber",
      "type_variety": "SSMF",
      "params": {
        "length": 20.0,
        "loss_coef": 0.2,
        "length_units": "km",
        "att_in": 6.0,
        "con_in": 0,
        "con_out": 0
      },
      "metadata": {
        "location": {
          "latitude": -27.843400000000003,
          "longitude": -55.7748,
          "city": null,
          "region": null
        }
      }
    },
    {
      "uid": "fiber (San Jose → Posadas)-",
      "type": "Fiber",
      "type_variety": "SSMF",
      "params": {
        "length": 53.0,
        "loss_coef": 0.2,
        "length_units": "km",
        "att_in": 0,
        "con_in": 0,
        "con_out": 0
      },
      "metadata": {
        "location": {
          "latitude": -27.56825,
          "longitude": -55.87465,
          "city": null,
          "region": null
        }
      }
    },
    {
      "uid": "fiber (San Jose de Metan → Lumbreras)-",
      "type": "Fiber",
      "type_variety": "SSMF",
      "params": {
        "length": 39.0,
        "loss_coef": 0.2,
        "length_units": "km",
        "att_in": 2.1999999999999993,
        "con_in": 0,
        "con_out": 0
      },
      "metadata": {
        "location": {
          "latitude": -25.35275,
          "longitude": -64.94925,
          "city": null,
          "region": null
        }
      }
    },
    {
      "uid": "fiber (Lumbreras → Salta)-",
      "type": "Fiber",
      "type_variety": "SSMF",
      "params": {
        "length": 112.0,
        "loss_coef": 0.2,
        "length_units": "km",
        "att_in": 0,
        "con_in": 0,
        "con_out": 0
      },
      "metadata": {
        "location": {
          "latitude": -24.99725,
          "longitude": -65.17484999999999,
          "city": null,
          "region": null
        }
      }
    },
    {
      "uid": "fiber (Salta → Los Lapachos)-",
      "type": "Fiber",
      "type_variety": "SSMF",
      "params": {
        "length": 80.0,
        "loss_coef": 0.2,
        "length_units": "km",
        "att_in": 0,
        "con_in": 0,
        "con_out": 0
      },
      "metadata": {
        "location": {
          "latitude": -24.629800000000003,
          "longitude": -65.24975,
          "city": null,
          "region": null
        }
      }
    },
    {
      "uid": "fiber (Los Lapachos → San Salvador de Jujuy)-",
      "type": "Fiber",
      "type_variety": "SSMF",
      "params": {
        "length": 54.0,
        "loss_coef": 0.2,
        "length_units": "km",
        "att_in": 0,
        "con_in": 0,
        "con_out": 0
      },
      "metadata": {
        "location": {
          "latitude": -24.33125,
          "longitude": -65.1879,
          "city": null,
          "region": null
        }
      }
    },
    {
      "uid": "fiber (Campana → Benavidez)-",
      "type": "Fiber",
      "type_variety": "SSMF",
      "params": {
        "length": 80.0,
        "loss_coef": 0.2,
        "length_units": "km",
        "att_in": 0,
        "con_in": 0,
        "con_out": 0
      },
      "metadata": {
        "location": {
          "latitude": -34.285799999999995,
          "longitude": -58.817099999999996,
          "city": null,
          "region": null
        }
      }
    },